Station Name,Latitude,Longitude,Number of Chargers,Number of Batteries
Connaught Place Hub,28.6315,77.2167,20,20
Dwarka Sector 21,28.552,77.0585,20,20
Rohini West,28.716,77.114,20,20
Nehru Place,28.5494,77.2501,20,20
Mayur Vihar Ph-1,28.613,77.29,20,20
Hauz Khas Village,28.553,77.206,20,20
